{
  "restaurants": [
    {
      "id": "1",
      "name": "Golden Dragon",
      "address": "123 Main Street, San Francisco, CA 94102",
      "cuisine": "Chinese",
      "rating": 4.5,
      "priceRange": "$$",
      "openingHours": "11:00",
      "closingHours": "22:00",
      "latitude": 37.7849,
      "longitude": -122.4094,
      "phone": "(415) 555-0101",
      "description": "Authentic Cantonese cuisine in the heart of the city"
    },
    {
      "id": "2",
      "name": "Bella Italia",
      "address": "456 Oak Avenue, San Francisco, CA 94103",
      "cuisine": "Italian",
      "rating": 4.7,
      "priceRange": "$$$",
      "openingHours": "17:00",
      "closingHours": "23:00",
      "latitude": 37.7751,
      "longitude": -122.4193,
      "phone": "(415) 555-0102",
      "description": "Fine Italian dining with imported ingredients"
    },
    {
      "id": "3",
      "name": "Taco Fiesta",
      "address": "789 Mission Street, San Francisco, CA 94105",
      "cuisine": "Mexican",
      "rating": 4.3,
      "priceRange": "$",
      "openingHours": "10:00",
      "closingHours": "21:00",
      "latitude": 37.7855,
      "longitude": -122.3997,
      "phone": "(415) 555-0103",
      "description": "Fresh tacos and burritos made to order"
    },
    {
      "id": "4",
      "name": "Sakura Sushi",
      "address": "321 Post Street, San Francisco, CA 94108",
      "cuisine": "Japanese",
      "rating": 4.8,
      "priceRange": "$$$",
      "openingHours": "12:00",
      "closingHours": "22:30",
      "latitude": 37.7879,
      "longitude": -122.4074,
      "phone": "(415) 555-0104",
      "description": "Premium sushi and traditional Japanese dishes"
    },
    {
      "id": "5",
      "name": "The Burger Joint",
      "address": "555 Market Street, San Francisco, CA 94105",
      "cuisine": "American",
      "rating": 4.2,
      "priceRange": "$$",
      "openingHours": "11:00",
      "closingHours": "23:00",
      "latitude": 37.7897,
      "longitude": -122.4000,
      "phone": "(415) 555-0105",
      "description": "Gourmet burgers with locally sourced beef"
    },
    {
      "id": "6",
      "name": "Spice of India",
      "address": "678 Geary Street, San Francisco, CA 94102",
      "cuisine": "Indian",
      "rating": 4.4,
      "priceRange": "$$",
      "openingHours": "11:30",
      "closingHours": "22:00",
      "latitude": 37.7867,
      "longitude": -122.4145,
      "phone": "(415) 555-0106",
      "description": "Traditional North Indian cuisine with modern flair"
    },
    {
      "id": "7",
      "name": "Pho Paradise",
      "address": "890 Larkin Street, San Francisco, CA 94109",
      "cuisine": "Vietnamese",
      "rating": 4.6,
      "priceRange": "$",
      "openingHours": "09:00",
      "closingHours": "21:00",
      "latitude": 37.7859,
      "longitude": -122.4177,
      "phone": "(415) 555-0107",
      "description": "Authentic Vietnamese pho and banh mi"
    },
    {
      "id": "8",
      "name": "Mediterranean Grill",
      "address": "234 Union Street, San Francisco, CA 94123",
      "cuisine": "Mediterranean",
      "rating": 4.5,
      "priceRange": "$$",
      "openingHours": "11:00",
      "closingHours": "22:00",
      "latitude": 37.7989,
      "longitude": -122.4321,
      "phone": "(415) 555-0108",
      "description": "Fresh Mediterranean dishes and mezze platters"
    },
    {
      "id": "9",
      "name": "Seoul Kitchen",
      "address": "567 Clement Street, San Francisco, CA 94118",
      "cuisine": "Korean",
      "rating": 4.3,
      "priceRange": "$$",
      "openingHours": "11:00",
      "closingHours": "23:00",
      "latitude": 37.7828,
      "longitude": -122.4634,
      "phone": "(415) 555-0109",
      "description": "Korean BBQ and traditional dishes"
    },
    {
      "id": "10",
      "name": "French Corner Bistro",
      "address": "890 Hayes Street, San Francisco, CA 94117",
      "cuisine": "French",
      "rating": 4.7,
      "priceRange": "$$$",
      "openingHours": "17:00",
      "closingHours": "22:00",
      "latitude": 37.7758,
      "longitude": -122.4269,
      "phone": "(415) 555-0110",
      "description": "Classic French cuisine in an intimate setting"
    },
    {
      "id": "11",
      "name": "Thai Orchid",
      "address": "123 Divisadero Street, San Francisco, CA 94117",
      "cuisine": "Thai",
      "rating": 4.4,
      "priceRange": "$$",
      "openingHours": "11:30",
      "closingHours": "21:30",
      "latitude": 37.7745,
      "longitude": -122.4378,
      "phone": "(415) 555-0111",
      "description": "Authentic Thai curries and noodle dishes"
    },
    {
      "id": "12",
      "name": "Pizzeria Napoli",
      "address": "456 Columbus Avenue, San Francisco, CA 94133",
      "cuisine": "Italian",
      "rating": 4.6,
      "priceRange": "$$",
      "openingHours": "11:00",
      "closingHours": "23:00",
      "latitude": 37.7985,
      "longitude": -122.4076,
      "phone": "(415) 555-0112",
      "description": "Wood-fired Neapolitan pizza"
    },
    {
      "id": "13",
      "name": "Green Garden Vegan",
      "address": "789 Valencia Street, San Francisco, CA 94110",
      "cuisine": "Vegan",
      "rating": 4.5,
      "priceRange": "$$",
      "openingHours": "10:00",
      "closingHours": "21:00",
      "latitude": 37.7602,
      "longitude": -122.4216,
      "phone": "(415) 555-0113",
      "description": "Creative plant-based cuisine"
    },
    {
      "id": "14",
      "name": "El Farolito",
      "address": "2779 Mission Street, San Francisco, CA 94110",
      "cuisine": "Mexican",
      "rating": 4.4,
      "priceRange": "$",
      "openingHours": "10:00",
      "closingHours": "02:00",
      "latitude": 37.7529,
      "longitude": -122.4185,
      "phone": "(415) 555-0114",
      "description": "Late-night Mexican food favorite"
    },
    {
      "id": "15",
      "name": "Dim Sum Palace",
      "address": "1001 Stockton Street, San Francisco, CA 94108",
      "cuisine": "Chinese",
      "rating": 4.3,
      "priceRange": "$$",
      "openingHours": "09:00",
      "closingHours": "15:00",
      "latitude": 37.7964,
      "longitude": -122.4078,
      "phone": "(415) 555-0115",
      "description": "Traditional dim sum served daily"
    },
    {
      "id": "16",
      "name": "Steakhouse Prime",
      "address": "345 California Street, San Francisco, CA 94104",
      "cuisine": "American",
      "rating": 4.8,
      "priceRange": "$$$$",
      "openingHours": "17:00",
      "closingHours": "23:00",
      "latitude": 37.7932,
      "longitude": -122.4003,
      "phone": "(415) 555-0116",
      "description": "Premium cuts and fine wines"
    },
    {
      "id": "17",
      "name": "Ocean Catch Seafood",
      "address": "678 Jefferson Street, San Francisco, CA 94109",
      "cuisine": "Seafood",
      "rating": 4.5,
      "priceRange": "$$$",
      "openingHours": "11:00",
      "closingHours": "22:00",
      "latitude": 37.8078,
      "longitude": -122.4189,
      "phone": "(415) 555-0117",
      "description": "Fresh seafood from local fishermen"
    },
    {
      "id": "18",
      "name": "Ramen House",
      "address": "1234 Polk Street, San Francisco, CA 94109",
      "cuisine": "Japanese",
      "rating": 4.6,
      "priceRange": "$$",
      "openingHours": "11:00",
      "closingHours": "22:00",
      "latitude": 37.7906,
      "longitude": -122.4200,
      "phone": "(415) 555-0118",
      "description": "Rich tonkotsu ramen and Japanese small plates"
    },
    {
      "id": "19",
      "name": "Greek Islands",
      "address": "567 Irving Street, San Francisco, CA 94122",
      "cuisine": "Greek",
      "rating": 4.4,
      "priceRange": "$$",
      "openingHours": "11:00",
      "closingHours": "21:30",
      "latitude": 37.7639,
      "longitude": -122.4625,
      "phone": "(415) 555-0119",
      "description": "Traditional Greek dishes and fresh salads"
    },
    {
      "id": "20",
      "name": "Ethiopian Flavors",
      "address": "890 Haight Street, San Francisco, CA 94117",
      "cuisine": "Ethiopian",
      "rating": 4.5,
      "priceRange": "$$",
      "openingHours": "12:00",
      "closingHours": "22:00",
      "latitude": 37.7695,
      "longitude": -122.4475,
      "phone": "(415) 555-0120",
      "description": "Authentic Ethiopian stews and injera bread"
    },
    {
      "id": "21",
      "name": "Brazilian Churrasco",
      "address": "234 Townsend Street, San Francisco, CA 94107",
      "cuisine": "Brazilian",
      "rating": 4.6,
      "priceRange": "$$$",
      "openingHours": "17:00",
      "closingHours": "22:30",
      "latitude": 37.7793,
      "longitude": -122.3925,
      "phone": "(415) 555-0121",
      "description": "All-you-can-eat Brazilian steakhouse"
    },
    {
      "id": "22",
      "name": "Peruvian Delights",
      "address": "456 Folsom Street, San Francisco, CA 94105",
      "cuisine": "Peruvian",
      "rating": 4.4,
      "priceRange": "$$",
      "openingHours": "11:00",
      "closingHours": "21:00",
      "latitude": 37.7877,
      "longitude": -122.3942,
      "phone": "(415) 555-0122",
      "description": "Ceviche and traditional Peruvian dishes"
    },
    {
      "id": "23",
      "name": "Breakfast Club",
      "address": "789 Fillmore Street, San Francisco, CA 94117",
      "cuisine": "American",
      "rating": 4.3,
      "priceRange": "$$",
      "openingHours": "07:00",
      "closingHours": "15:00",
      "latitude": 37.7745,
      "longitude": -122.4312,
      "phone": "(415) 555-0123",
      "description": "All-day breakfast and brunch favorites"
    },
    {
      "id": "24",
      "name": "Tapas Barcelona",
      "address": "1011 24th Street, San Francisco, CA 94107",
      "cuisine": "Spanish",
      "rating": 4.7,
      "priceRange": "$$$",
      "openingHours": "17:00",
      "closingHours": "23:00",
      "latitude": 37.7541,
      "longitude": -122.4034,
      "phone": "(415) 555-0124",
      "description": "Spanish tapas and sangria bar"
    },
    {
      "id": "25",
      "name": "Curry House",
      "address": "321 9th Avenue, San Francisco, CA 94118",
      "cuisine": "Indian",
      "rating": 4.2,
      "priceRange": "$$",
      "openingHours": "11:00",
      "closingHours": "22:00",
      "latitude": 37.7834,
      "longitude": -122.4669,
      "phone": "(415) 555-0125",
      "description": "South Indian specialties and dosas"
    },
    {
      "id": "26",
      "name": "Aga's Restaurant",
      "address": "6815 Hillcroft St, Houston, TX 77081",
      "cuisine": "Indian",
      "rating": 4.3,
      "priceRange": "$$",
      "openingHours": "11:30",
      "closingHours": "22:00",
      "latitude": 29.7064,
      "longitude": -95.4963,
      "phone": "(713) 981-7717",
      "description": "Authentic Andhra cuisine with biryani and curries"
    },
    {
      "id": "27",
      "name": "Pondicheri",
      "address": "2800 Kirby Dr, Houston, TX 77098",
      "cuisine": "Indian",
      "rating": 4.4,
      "priceRange": "$$",
      "openingHours": "11:00",
      "closingHours": "21:00",
      "latitude": 29.7370,
      "longitude": -95.4189,
      "phone": "(713) 522-2022",
      "description": "Modern South Indian farm-to-table cuisine"
    },
    {
      "id": "28",
      "name": "Himalaya Restaurant",
      "address": "3601 Hillcroft St, Houston, TX 77057",
      "cuisine": "Indian",
      "rating": 4.1,
      "priceRange": "$$",
      "openingHours": "11:00",
      "closingHours": "23:00",
      "latitude": 29.7304,
      "longitude": -95.4950,
      "phone": "(713) 532-2837",
      "description": "Halal Pakistani and South Indian cuisine"
    },
    {
      "id": "29",
      "name": "Indika Modern Indian",
      "address": "516 Westheimer Rd, Houston, TX 77006",
      "cuisine": "Indian",
      "rating": 4.5,
      "priceRange": "$$$",
      "openingHours": "17:30",
      "closingHours": "22:00",
      "latitude": 29.7431,
      "longitude": -95.3946,
      "phone": "(713) 524-2170",
      "description": "Upscale modern Indian with tandoori lamb"
    },
    {
      "id": "30",
      "name": "Madras Pavilion",
      "address": "3910 Kirby Dr, Houston, TX 77098",
      "cuisine": "Indian",
      "rating": 4.2,
      "priceRange": "$",
      "openingHours": "11:30",
      "closingHours": "22:00",
      "latitude": 29.7352,
      "longitude": -95.4192,
      "phone": "(713) 521-2617",
      "description": "Pure vegetarian South Indian cuisine"
    }
  ]
}
